[{"id":1,"name":"Vizag","state":"Andhra Pradesh","lat":17.6868,"lng":83.2185,"capacity_tpa":0,"monthly_demand":0,"storage_constraints":0,"city":"Visakhapatnam","source_url":"https://www.adani.com/businesses/materials/cement","plant_type":"Blending Unit","company_brand":"ACC"},{"id":2,"name":"Krishnapatnam","state":"Andhra Pradesh","lat":14.25,"lng":80.1167,"capacity_tpa":0,"monthly_demand":0,"storage_constraints":0,"city":"Krishnapatnam","source_url":"https://www.adani.com/businesses/materials/cement","plant_type":"Bulk Cement Terminal","company_brand":"Penna"},{"id":3,"name":"Navlakhi","state":"Gujarat","lat":22.9667,"lng":70.45,"capacity_tpa":0,"monthly_demand":0,"storage_constraints":0,"city":"Navlakhi","source_url":"https://www.adani.com/businesses/materials/cement","plant_type":"Bulk Cement Terminal","company_brand":"Sanghi"},{"id":4,"name":"Dahej","state":"Gujarat","lat":21.7,"lng":72.58,"capacity_tpa":0,"monthly_demand":0,"storage_constraints":0,"city":"Dahej","source_url":"https://www.adani.com/businesses/materials/cement","plant_type":"Grinding Unit","company_brand":"ACIL"},{"id":5,"name":"Surat (Magdalla)","state":"Gujarat","lat":21.17,"lng":72.83,"capacity_tpa":0,"monthly_demand":0,"storage_constraints":0,"city":"Surat","source_url":"https://www.adani.com/businesses/materials/cement","plant_type":"Grinding Unit","company_brand":"Ambuja"},{"id":6,"name":"Muldwarka","state":"Gujarat","lat":20.9,"lng":70.68,"capacity_tpa":0,"monthly_demand":0,"storage_constraints":0,"city":"Muldwarka","source_url":"https://www.adani.com/businesses/materials/cement","plant_type":"Bulk Cement Terminal","company_brand":"Ambuja"},{"id":7,"name":"Nalagarh","state":"Himachal Pradesh","lat":31.04,"lng":76.71,"capacity_tpa":0,"monthly_demand":0,"storage_constraints":0,"city":"Nalagarh","source_url":"https://www.adani.com/businesses/materials/cement","plant_type":"Grinding Unit","company_brand":"Ambuja"},{"id":8,"name":"Asian, Solan (Nalagarh)","state":"Himachal Pradesh","lat":30.9045,"lng":77.0967,"capacity_tpa":0,"monthly_demand":0,"storage_constraints":0,"city":"Solan","source_url":"https://www.adani.com/businesses/materials/cement","plant_type":"Grinding Unit","company_brand":"ACC"},{"id":9,"name":"Sindri, Dhanbad","state":"Jharkhand","lat":23.7957,"lng":86.4304,"capacity_tpa":0,"monthly_demand":0,"storage_constraints":0,"city":"Dhanbad","source_url":"https://www.adani.com/businesses/materials/cement","plant_type":"Grinding Unit","company_brand":"ACC"},{"id":10,"name":"Kudithini (Bellary)","state":"Karnataka","lat":15.18,"lng":76.81,"capacity_tpa":0,"monthly_demand":0,"storage_constraints":0,"city":"Bellary","source_url":"https://www.adani.com/businesses/materials/cement","plant_type":"Grinding Unit","company_brand":"ACC"},{"id":11,"name":"Thondebhavi (Kolar)","state":"Karnataka","lat":13.51,"lng":77.42,"capacity_tpa":0,"monthly_demand":0,"storage_constraints":0,"city":"Kolar","source_url":"https://www.adani.com/businesses/materials/cement","plant_type":"Grinding Unit","company_brand":"ACC"},{"id":12,"name":"Manglore","state":"Karnataka","lat":12.9141,"lng":74.856,"capacity_tpa":0,"monthly_demand":0,"storage_constraints":0,"city":"Mangalore","source_url":"https://www.adani.com/businesses/materials/cement","plant_type":"Bulk Cement Terminal","company_brand":"Ambuja"},{"id":13,"name":"Cochin","state":"Kerala","lat":9.9312,"lng":76.2673,"capacity_tpa":0,"monthly_demand":0,"storage_constraints":0,"city":"Kochi","source_url":"https://www.adani.com/businesses/materials/cement","plant_type":"Bulk Cement Terminal","company_brand":"Ambuja"},{"id":14,"name":"Cochin","state":"Kerala","lat":9.9312,"lng":76.2673,"capacity_tpa":0,"monthly_demand":0,"storage_constraints":0,"city":"Kochi","source_url":"https://www.adani.com/businesses/materials/cement","plant_type":"Bulk Cement Terminal","company_brand":"Penna"},{"id":15,"name":"Kalamboli, BCT","state":"Maharashtra","lat":19.0308,"lng":73.1022,"capacity_tpa":0,"monthly_demand":0,"storage_constraints":0,"city":"Kalamboli","source_url":"https://www.adani.com/businesses/materials/cement","plant_type":"Bulk Cement Terminal","company_brand":"ACC"},{"id":16,"name":"Panvel, BCT","state":"Maharashtra","lat":18.9894,"lng":73.1175,"capacity_tpa":0,"monthly_demand":0,"storage_constraints":0,"city":"Panvel","source_url":"https://www.adani.com/businesses/materials/cement","plant_type":"Bulk Cement Terminal","company_brand":"Ambuja"},{"id":17,"name":"Gopalpur","state":"Odisha","lat":19.2612,"lng":84.9126,"capacity_tpa":0,"monthly_demand":0,"storage_constraints":0,"city":"Gopalpur","source_url":"https://www.adani.com/businesses/materials/cement","plant_type":"Bulk Cement Terminal","company_brand":"Penna"},{"id":18,"name":"Asian Rajpura","state":"Punjab","lat":30.4842,"lng":76.5941,"capacity_tpa":0,"monthly_demand":0,"storage_constraints":0,"city":"Rajpura","source_url":"https://www.adani.com/businesses/materials/cement","plant_type":"Grinding Unit","company_brand":"ACC"},{"id":19,"name":"Ropar","state":"Punjab","lat":30.97,"lng":76.53,"capacity_tpa":0,"monthly_demand":0,"storage_constraints":0,"city":"Ropar","source_url":"https://www.adani.com/businesses/materials/cement","plant_type":"Grinding Unit","company_brand":"Ambuja"},{"id":20,"name":"Bathinda","state":"Punjab","lat":30.211,"lng":74.9455,"capacity_tpa":0,"monthly_demand":0,"storage_constraints":0,"city":"Bathinda","source_url":"https://www.adani.com/businesses/materials/cement","plant_type":"Grinding Unit","company_brand":"Ambuja"},{"id":21,"name":"Darla / Suli","state":"Punjab","lat":31.24,"lng":76.95,"capacity_tpa":0,"monthly_demand":0,"storage_constraints":0,"city":"Darla","source_url":"https://www.adani.com/businesses/materials/cement","plant_type":"Grinding Unit","company_brand":"Penna"},{"id":22,"name":"Madukkarai","state":"Tamil Nadu","lat":10.91,"lng":76.96,"capacity_tpa":0,"monthly_demand":0,"storage_constraints":0,"city":"Madukkarai","source_url":"https://www.adani.com/businesses/materials/cement","plant_type":"Grinding Unit","company_brand":"ACC"},{"id":23,"name":"Tuticorin","state":"Tamil Nadu","lat":8.7642,"lng":78.1348,"capacity_tpa":0,"monthly_demand":0,"storage_constraints":0,"city":"Tuticorin","source_url":"https://www.adani.com/businesses/materials/cement","plant_type":"Grinding Unit","company_brand":"Ambuja"},{"id":24,"name":"Karaikal","state":"Tamil Nadu","lat":10.9254,"lng":79.838,"capacity_tpa":0,"monthly_demand":0,"storage_constraints":0,"city":"Karaikal","source_url":"https://www.adani.com/businesses/materials/cement","plant_type":"Bulk Cement Terminal","company_brand":"Penna"},{"id":25,"name":"Dadri","state":"Uttar Pradesh","lat":28.55,"lng":77.55,"capacity_tpa":0,"monthly_demand":0,"storage_constraints":0,"city":"Dadri","source_url":"https://www.adani.com/businesses/materials/cement","plant_type":"Grinding Unit","company_brand":"Ambuja"},{"id":26,"name":"Tikaria","state":"Uttar Pradesh","lat":26.24,"lng":81.33,"capacity_tpa":0,"monthly_demand":0,"storage_constraints":0,"city":"Tikaria","source_url":"https://www.adani.com/businesses/materials/cement","plant_type":"Grinding Unit","company_brand":"ACC"},{"id":27,"name":"Roorkee","state":"Uttarakhand","lat":29.85,"lng":77.88,"capacity_tpa":0,"monthly_demand":0,"storage_constraints":0,"city":"Roorkee","source_url":"https://www.adani.com/businesses/materials/cement","plant_type":"Grinding Unit","company_brand":"Ambuja"},{"id":28,"name":"Farakka","state":"West Bengal","lat":24.78,"lng":87.91,"capacity_tpa":0,"monthly_demand":0,"storage_constraints":0,"city":"Farakka","source_url":"https://www.adani.com/businesses/materials/cement","plant_type":"Grinding Unit","company_brand":"Ambuja"},{"id":29,"name":"Damodhar","state":"West Bengal","lat":23.58,"lng":87.12,"capacity_tpa":0,"monthly_demand":0,"storage_constraints":0,"city":"Damodhar","source_url":"https://www.adani.com/businesses/materials/cement","plant_type":"Grinding Unit","company_brand":"ACC"},{"id":30,"name":"Kolkata","state":"West Bengal","lat":22.5726,"lng":88.3639,"capacity_tpa":0,"monthly_demand":0,"storage_constraints":0,"city":"Kolkata","source_url":"https://www.adani.com/businesses/materials/cement","plant_type":"Bulk Cement Terminal","company_brand":"Penna"},{"id":31,"name":"Sankrail","state":"West Bengal","lat":22.58,"lng":88.25,"capacity_tpa":0,"monthly_demand":0,"storage_constraints":0,"city":"Sankrail","source_url":"https://www.adani.com/businesses/materials/cement","plant_type":"Grinding Unit","company_brand":"Ambuja"}]